{
   "Stanford University": {
      "admission_rate": 0.0569,
      "id": 243744,
      "lat": 37.426967,
      "lon": -122.168826,
      "carnegie_basic": 15,
      "city": "Stanford",
      "name": "Stanford University",
      "ownership": 2,
      "region_id": 8,
      "state": "CA",
      "zip": 94305
   },
   "Harvard University": {
      "admission_rate": 0.0584,
      "id": 166027,
      "lat": 42.374429,
      "lon": -71.118177,
      "carnegie_basic": 15,
      "city": "Cambridge",
      "name": "Harvard University",
      "ownership": 2,
      "region_id": 1,
      "state": "MA",
      "zip": 2138
   },
   "Princeton University": {
      "admission_rate": 0.0741,
      "id": 186131,
      "lat": 40.34853,
      "lon": -74.663603,
      "carnegie_basic": 15,
      "city": "Princeton",
      "name": "Princeton University",
      "ownership": 2,
      "region_id": 2,
      "state": "NJ",
      "zip": 8544
   },
   "Massachusetts Institute of Technology": {
      "admission_rate": 0.0815,
      "id": 166683,
      "lat": 42.360095,
      "lon": -71.092115,
      "carnegie_basic": 15,
      "city": "Cambridge",
      "name": "Massachusetts Institute of Technology",
      "ownership": 2,
      "region_id": 1,
      "state": "MA",
      "zip": 2139
   },
   "Yale University": {
      "admission_rate": 0.0705,
      "id": 130794,
      "lat": 41.311158,
      "lon": -72.926688,
      "carnegie_basic": 15,
      "city": "New Haven",
      "name": "Yale University",
      "ownership": 2,
      "region_id": 1,
      "state": "CT",
      "zip": 6520
   },
   "Columbia University in the City of New York": {
      "admission_rate": 0.0742,
      "id": 190150,
      "lat": 40.808286,
      "lon": -73.961885,
      "carnegie_basic": 15,
      "city": "New York",
      "name": "Columbia University in the City of New York",
      "ownership": 2,
      "region_id": 2,
      "state": "NY",
      "zip": 10027
   },
   "University of Pennsylvania": {
      "admission_rate": 0.1224,
      "id": 215062,
      "lat": 39.951002,
      "lon": -75.193618,
      "carnegie_basic": 15,
      "city": "Philadelphia",
      "name": "University of Pennsylvania",
      "ownership": 2,
      "region_id": 2,
      "state": "PA",
      "zip": 19104
   },
   "Northwestern University": {
      "admission_rate": 0.1532,
      "id": 147767,
      "lat": 42.058377,
      "lon": -87.673653,
      "carnegie_basic": 15,
      "city": "Evanston",
      "name": "Northwestern University",
      "ownership": 2,
      "region_id": 3,
      "state": "IL",
      "zip": 60208
   },
   "Cornell University": {
      "admission_rate": 0.1556,
      "id": 190415,
      "lat": 42.447199,
      "lon": -76.483489,
      "carnegie_basic": 15,
      "city": "Ithaca",
      "name": "Cornell University",
      "ownership": 2,
      "region_id": 2,
      "state": "NY",
      "zip": 14853
   },
   "Duke University": {
      "admission_rate": 0.1342,
      "id": 198419,
      "lat": 36.00159,
      "lon": -78.94226,
      "carnegie_basic": 15,
      "city": "Durham",
      "name": "Duke University",
      "ownership": 2,
      "region_id": 5,
      "state": "NC",
      "zip": 27708
   },
   "University of California-Berkeley": {
      "admission_rate": 0.18,
      "id": 110635,
      "lat": 37.871969,
      "lon": -122.260423,
      "carnegie_basic": 15,
      "city": "Berkeley",
      "name": "University of California-Berkeley",
      "ownership": 1,
      "region_id": 8,
      "state": "CA",
      "zip": 94720
   },
   "University of California-Los Angeles": {
      "admission_rate": 0.2199,
      "id": 110662,
      "lat": 34.068892,
      "lon": -118.443901,
      "carnegie_basic": 15,
      "city": "Los Angeles",
      "name": "University of California-Los Angeles",
      "ownership": 1,
      "region_id": 8,
      "state": "CA",
      "zip": 90095
   },
   "Brown University": {
      "admission_rate": 0.0918,
      "id": 217156,
      "lat": 41.827605,
      "lon": -71.404467,
      "carnegie_basic": 15,
      "city": "Providence",
      "name": "Brown University",
      "ownership": 2,
      "region_id": 1,
      "state": "RI",
      "zip": 2912
   },
   "Dartmouth College": {
      "admission_rate": 0.0978,
      "id": 182670,
      "lat": 43.70408,
      "lon": -72.289951,
      "carnegie_basic": 16,
      "city": "Hanover",
      "name": "Dartmouth College",
      "ownership": 2,
      "region_id": 1,
      "state": "NH",
      "zip": 3755
   },
   "Johns Hopkins University": {
      "admission_rate": 0.1813,
      "id": 162928,
      "lat": 39.32838,
      "lon": -76.620799,
      "carnegie_basic": 15,
      "city": "Baltimore",
      "name": "Johns Hopkins University",
      "ownership": 2,
      "region_id": 2,
      "state": "MD",
      "zip": 21218
   },
   "University of Michigan-Ann Arbor": {
      "admission_rate": 0.3326,
      "id": 170976,
      "lat": 42.276061,
      "lon": -83.743121,
      "carnegie_basic": 15,
      "city": "Ann Arbor",
      "name": "University of Michigan-Ann Arbor",
      "ownership": 1,
      "region_id": 3,
      "state": "MI",
      "zip": 48109
   },
   "University of North Carolina at Chapel Hill": {
      "admission_rate": 0.2759,
      "id": 199120,
      "lat": 35.912165,
      "lon": -79.050969,
      "carnegie_basic": 15,
      "city": "Chapel Hill",
      "name": "University of North Carolina at Chapel Hill",
      "ownership": 1,
      "region_id": 5,
      "state": "NC",
      "zip": 27599
   },
   "Carnegie Mellon University": {
      "admission_rate": 0.2549,
      "id": 211440,
      "lat": 40.444616,
      "lon": -79.942914,
      "carnegie_basic": 15,
      "city": "Pittsburgh",
      "name": "Carnegie Mellon University",
      "ownership": 2,
      "region_id": 2,
      "state": "PA",
      "zip": 15213
   },
   "New York University": {
      "admission_rate": 0.3239,
      "id": 193900,
      "lat": 40.729452,
      "lon": -73.997264,
      "carnegie_basic": 15,
      "city": "New York",
      "name": "New York University",
      "ownership": 2,
      "region_id": 2,
      "state": "NY",
      "zip": 10012
   },
   "University of Wisconsin-Madison": {
      "admission_rate": 0.6792,
      "id": 240444,
      "lat": 43.073858,
      "lon": -89.405356,
      "carnegie_basic": 15,
      "city": "Madison",
      "name": "University of Wisconsin-Madison",
      "ownership": 1,
      "region_id": 3,
      "state": "WI",
      "zip": 53706
   },
   "University of Illinois at Urbana-Champaign": {
      "admission_rate": 0.6239,
      "id": 145637,
      "lat": 40.108864,
      "lon": -88.230309,
      "carnegie_basic": 15,
      "city": "Champaign",
      "name": "University of Illinois at Urbana-Champaign",
      "ownership": 1,
      "region_id": 3,
      "state": "IL",
      "zip": 61820
   },
   "University of Washington-Seattle Campus": {
      "admission_rate": 0.5523,
      "id": 236948,
      "lat": 47.656213,
      "lon": -122.313115,
      "carnegie_basic": 15,
      "city": "Seattle",
      "name": "University of Washington-Seattle Campus",
      "ownership": 1,
      "region_id": 8,
      "state": "WA",
      "zip": 98195
   },
   "Georgia Institute of Technology-Main Campus": {
      "admission_rate": 0.5493,
      "id": 139755,
      "lat": 33.773732,
      "lon": -84.396019,
      "carnegie_basic": 15,
      "city": "Atlanta",
      "name": "Georgia Institute of Technology-Main Campus",
      "ownership": 1,
      "region_id": 5,
      "state": "GA",
      "zip": 30332
   },
   "University of California-San Diego": {
      "admission_rate": 0.375,
      "id": 110680,
      "lat": 32.876598,
      "lon": -117.237793,
      "carnegie_basic": 15,
      "city": "La Jolla",
      "name": "University of California-San Diego",
      "ownership": 1,
      "region_id": 8,
      "state": "CA",
      "zip": 92093
   },
   "The University of Texas at Austin": {
      "admission_rate": 0.4019,
      "id": 228778,
      "lat": 30.286598,
      "lon": -97.73924,
      "carnegie_basic": 15,
      "city": "Austin",
      "name": "The University of Texas at Austin",
      "ownership": 1,
      "region_id": 6,
      "state": "TX",
      "zip": 78712
   },
   "University of Maryland-College Park": {
      "admission_rate": 0.4699,
      "id": 163286,
      "lat": 38.985379,
      "lon": -76.939494,
      "carnegie_basic": 15,
      "city": "College Park",
      "name": "University of Maryland-College Park",
      "ownership": 1,
      "region_id": 2,
      "state": "MD",
      "zip": 20742
   }
}